{
  "type": "FeatureCollection",
  "features": [
    {
      "type": "Feature",
      "geometry": {
        "type": "Point",
        "coordinates": [2.169576,41.385597]
      },
      "properties": {
        "name": "Barcelona, Spain"
      }
    },
    {
      "type": "Feature",
      "geometry": {
        "type": "Point",
        "coordinates": [-65.34889,-23.199722]
      },
      "properties": {
        "name": "Humahuaca, Argentina"
      }
    },
    {
      "type": "Feature",
      "geometry": {
        "type": "Point",
        "coordinates": [-82.462524,27.943573]
      },
      "properties": {
        "name": "Tampa, FL, USA"
      }
    },
    {
      "type": "Feature",
      "geometry": {
        "type": "Point",
        "coordinates": [-68.788315,-32.980873]
      },
      "properties": {
        "name": "Maipu, Argentina"
      }
    },
    {
      "type": "Feature",
      "geometry": {
        "type": "Point",
        "coordinates": [-65.39654,-23.576897]
      },
      "properties": {
        "name": "Tilcara, Argentina"
      }
    },
    {
      "type": "Feature",
      "geometry": {
        "type": "Point",
        "coordinates": [6.874358,48.75011]
      },
      "properties": {
        "name": "Rhodes, France"
      }
    },
    {
      "type": "Feature",
      "geometry": {
        "type": "Point",
        "coordinates": [19.948544,50.05449]
      },
      "properties": {
        "name": "Krakow, Poland"
      }
    },
    {
      "type": "Feature",
      "geometry": {
        "type": "Point",
        "coordinates": [-54.935806,-34.937096]
      },
      "properties": {
        "name": "Punta del Este, Uruguay"
      }
    },
    {
      "type": "Feature",
      "geometry": {
        "type": "Point",
        "coordinates": [-9.138085,38.71211]
      },
      "properties": {
        "name": "Lisbon, Portugal"
      }
    },
    {
      "type": "Feature",
      "geometry": {
        "type": "Point",
        "coordinates": [-57.77744,-37.945717]
      },
      "properties": {
        "name": "Sierra de los Padres, Argentina"
      }
    },
    {
      "type": "Feature",
      "geometry": {
        "type": "Point",
        "coordinates": [-68.14605,-16.49827]
      },
      "properties": {
        "name": "La Paz, Bolivia"
      }
    },
    {
      "type": "Feature",
      "geometry": {
        "type": "Point",
        "coordinates": [-54.56604,-25.51356]
      },
      "properties": {
        "name": "Foz do Iguacu, Brazil"
      }
    },
    {
      "type": "Feature",
      "geometry": {
        "type": "Point",
        "coordinates": [-72.53369,-13.181424]
      },
      "properties": {
        "name": "Machu Picchu, Peru"
      }
    },
    {
      "type": "Feature",
      "geometry": {
        "type": "Point",
        "coordinates": [-64.34678,-33.12895]
      },
      "properties": {
        "name": "Rio Cuarto, Argentina"
      }
    },
    {
      "type": "Feature",
      "geometry": {
        "type": "Point",
        "coordinates": [-111.90102,40.76258]
      },
      "properties": {
        "name": "Salt Lake City, UT, USA"
      }
    },
    {
      "type": "Feature",
      "geometry": {
        "type": "Point",
        "coordinates": [-122.4376,37.7577]
      },
      "properties": {
        "name": "San Francisco, CA, USA"
      }
    },
    {
      "type": "Feature",
      "geometry": {
        "type": "Point",
        "coordinates": [-122.298889,38.304722]
      },
      "properties": {
        "name": "Napa, CA, USA"
      }
    },
    {
      "type": "Feature",
      "geometry": {
        "type": "Point",
        "coordinates": [-122.026389, 36.971944]
      },
      "properties": {
        "name": "Santa Cruz, CA, USA"
      }
    },
    {
      "type": "Feature",
      "geometry": {
        "type": "Point",
        "coordinates": [-122.470278, 38.505278]
      },
      "properties": {
        "name": "St. Helena, CA, USA"
      }
    },
    {
      "type": "Feature",
      "geometry": {
        "type": "Point",
        "coordinates": [-124.163611, 40.801944]
      },
      "properties": {
        "name": "Eureka, CA, USA"
      }
    },
    {
      "type": "Feature",
      "geometry": {
        "type": "Point",
        "coordinates": [-123.799444, 39.307778]
      },
      "properties": {
        "name": "Mendocino, CA, USA"
      }
    },
    {
      "type": "Feature",
      "geometry": {
        "type": "Point",
        "coordinates": [-120.653889,35.640833]
      },
      "properties": {
        "name": "Paso Robles, CA, USA"
      }
    },
    {
      "type": "Feature",
      "geometry": {
        "type": "Point",
        "coordinates": [-122.458889,38.288889]
      },
      "properties": {
        "name": "Sonoma, CA, USA"
      }
    },
    {
      "type": "Feature",
      "geometry": {
        "type": "Point",
        "coordinates": [-122.631389,38.245833]
      },
      "properties": {
        "name": "Petaluma, CA, USA"
      }
    },
    {
      "type": "Feature",
      "geometry": {
        "type": "Point",
        "coordinates": [-112.139444,36.053333]
      },
      "properties": {
        "name": "Grand Canyon Village, AZ, USA"
      }
    },
    {
      "type": "Feature",
      "geometry": {
        "type": "Point",
        "coordinates": [-118.25,34.05]
      },
      "properties": {
        "name": "Los Angeles, CA, USA"
      }
    },
    {
      "type": "Feature",
      "geometry": {
        "type": "Point",
        "coordinates": [-119.714167, 34.425833]
      },
      "properties": {
        "name": "Santa Barbara, CA, USA"
      }
    },
    {
      "type": "Feature",
      "geometry": {
        "type": "Point",
        "coordinates": [-120.853333, 35.379167]
      },
      "properties": {
        "name": "Morro Bay, CA, USA"
      }
    },
    {
      "type": "Feature",
      "geometry": {
        "type": "Point",
        "coordinates": [-117.912222, 33.665]
      },
      "properties": {
        "name": "Costa Mesa, CA, USA"
      }
    },
    {
      "type": "Feature",
      "geometry": {
        "type": "Point",
        "coordinates": [-120.088333,34.611944]
      },
      "properties": {
        "name": "Santa Ynes, CA, USA"
      }
    },
    {
      "type": "Feature",
      "geometry": {
        "type": "Point",
        "coordinates": [-120.1175,34.663889]
      },
      "properties": {
        "name": "Los Olivos, CA, USA"
      }
    },
    {
      "type": "Feature",
      "geometry": {
        "type": "Point",
        "coordinates": [-120.663056,35.274167]
      },
      "properties": {
        "name": "San Luis Obispo, CA, USA"
      }
    },
    {
      "type": "Feature",
      "geometry": {
        "type": "Point",
        "coordinates": [-121.923333,36.555278]
      },
      "properties": {
        "name": "Carmel-By-The-Sea, CA, USA"
      }
    },
    {
      "type": "Feature",
      "geometry": {
        "type": "Point",
        "coordinates": [-122.270833,37.804444]
      },
      "properties": {
        "name": "Oakland, CA, USA"
      }
    },
    {
      "type": "Feature",
      "geometry": {
        "type": "Point",
        "coordinates": [-122.272778,37.871667]
      },
      "properties": {
        "name": "Berkeley, CA, USA",
        "marker-symbol": "building"
      }
    },
    {
      "type": "Feature",
      "geometry": {
        "type": "Point",
        "coordinates": [-115.136389,36.175]
      },
      "properties": {
        "name": "Las Vegas, NV, USA"
      }
    },
    {
      "type": "Feature",
      "geometry": {
        "type": "Point",
        "coordinates": [-116.011944,36.208611]
      },
      "properties": {
        "name": "Pahrump, NV, USA"
      }
    },
    {
      "type": "Feature",
      "geometry": {
        "type": "Point",
        "coordinates": [-118.173889,35.0525]
      },
      "properties": {
        "name": "Mojave, CA, USA"
      }
    },
    {
      "type": "Feature",
      "geometry": {
        "type": "Point",
        "coordinates": [-116.825833,36.241944]
      },
      "properties": {
        "name": "Death Valley National Park, NV, USA"
      }
    },
    {
      "type": "Feature",
      "geometry": {
        "type": "Point",
        "coordinates": [113.12833,23.021389]
      },
      "properties": {
        "name": "Foshan, China"
      }
    },
    {
      "type": "Feature",
      "geometry": {
        "type": "Point",
        "coordinates": [-66.821465,-20.458752]
      },
      "properties": {
        "name": "Uyuni, Bolivia"
      }
    },
    {
      "type": "Feature",
      "geometry": {
        "type": "Point",
        "coordinates": [-65.40985,-24.785955]
      },
      "properties": {
        "name": "Salta, Argentina"
      }
    },
    {
      "type": "Feature",
      "geometry": {
        "type": "Point",
        "coordinates": [-73.97103,40.67556]
      },
      "properties": {
        "name": "Brooklyn, NY, USA",
        "marker-symbol": "building"
      }
    },
    {
      "type": "Feature",
      "geometry": {
        "type": "Point",
        "coordinates": [116.5318,35.532776]
      },
      "properties": {
        "name": "Jining, China"
      }
    },
    {
      "type": "Feature",
      "geometry": {
        "type": "Point",
        "coordinates": [-65.49997,-23.73342]
      },
      "properties": {
        "name": "Purmamarca, Argentina"
      }
    },
    {
      "type": "Feature",
      "geometry": {
        "type": "Point",
        "coordinates": [2.349401,48.857037]
      },
      "properties": {
        "name": "Paris, France"
      }
    },
    {
      "type": "Feature",
      "geometry": {
        "type": "Point",
        "coordinates": [-0.377154,39.473854]
      },
      "properties": {
        "name": "Valencia, Spain"
      }
    },
    {
      "type": "Feature",
      "geometry": {
        "type": "Point",
        "coordinates": [-71.6283,-33.03716]
      },
      "properties": {
        "name": "Valparaiso, Chile"
      }
    },
    {
      "type": "Feature",
      "geometry": {
        "type": "Point",
        "coordinates": [-70.64779,-33.43771]
      },
      "properties": {
        "name": "Santiago, Chile"
      }
    },
    {
      "type": "Feature",
      "geometry": {
        "type": "Point",
        "coordinates": [117.09345,36.13542]
      },
      "properties": {
        "name": "Tai'an, China"
      }
    },
    {
      "type": "Feature",
      "geometry": {
        "type": "Point",
        "coordinates": [-59.10546,-34.56923]
      },
      "properties": {
        "name": "Lujan, Argentina"
      }
    },
    {
      "type": "Feature",
      "geometry": {
        "type": "Point",
        "coordinates": [-0.132022,38.544544]
      },
      "properties": {
        "name": "Benidorm, Spain"
      }
    },
    {
      "type": "Feature",
      "geometry": {
        "type": "Point",
        "coordinates": [0.046009,38.646122]
      },
      "properties": {
        "name": "Calpe, Spain"
      }
    },
    {
      "type": "Feature",
      "geometry": {
        "type": "Point",
        "coordinates": [-80.13456,25.793701]
      },
      "properties": {
        "name": "Miami Beach, FL, USA"
      }
    },
    {
      "type": "Feature",
      "geometry": {
        "type": "Point",
        "coordinates": [100.6075,13.803611]
      },
      "properties": {
        "name": "Bangkok, Thailand"
      }
    },
    {
      "type": "Feature",
      "geometry": {
        "type": "Point",
        "coordinates": [113.01936,34.45596]
      },
      "properties": {
        "name": "Dengfeng, China"
      }
    },
    {
      "type": "Feature",
      "geometry": {
        "type": "Point",
        "coordinates": [-80.190445,25.781275]
      },
      "properties": {
        "name": "Miami, FL, USA"
      }
    },
    {
      "type": "Feature",
      "geometry": {
        "type": "Point",
        "coordinates": [1.44303,43.603947]
      },
      "properties": {
        "name": "Toulouse, France"
      }
    },
    {
      "type": "Feature",
      "geometry": {
        "type": "Point",
        "coordinates": [-57.564903,-38.034485]
      },
      "properties": {
        "name": "Mar del Plata, Argentina",
        "marker-symbol": "building"
      }
    },
    {
      "type": "Feature",
      "geometry": {
        "type": "Point",
        "coordinates": [-57.94247,-34.920105]
      },
      "properties": {
        "name": "La Plata, Argentina"
      }
    },
    {
      "type": "Feature",
      "geometry": {
        "type": "Point",
        "coordinates": [-58.02264,-35.56637]
      },
      "properties": {
        "name": "Chascomus, Argentina"
      }
    },
    {
      "type": "Feature",
      "geometry": {
        "type": "Point",
        "coordinates": [-3.700708,40.41471]
      },
      "properties": {
        "name": "Madrid, Spain"
      }
    },
    {
      "type": "Feature",
      "geometry": {
        "type": "Point",
        "coordinates": [-56.899395,-37.158947]
      },
      "properties": {
        "name": "Carilo, Argentina"
      }
    },
    {
      "type": "Feature",
      "geometry": {
        "type": "Point",
        "coordinates": [103.54236,10.641693]
      },
      "properties": {
        "name": "Sihanoukville, Cambodia"
      }
    },
    {
      "type": "Feature",
      "geometry": {
        "type": "Point",
        "coordinates": [-70.59482,-32.820747]
      },
      "properties": {
        "name": "Los Andes, Chile"
      }
    },
    {
      "type": "Feature",
      "geometry": {
        "type": "Point",
        "coordinates": [-62.26904,-38.72116]
      },
      "properties": {
        "name": "Bahia Blanca, Argentina"
      }
    },
    {
      "type": "Feature",
      "geometry": {
        "type": "Point",
        "coordinates": [-1.128515,37.984093]
      },
      "properties": {
        "name": "Murcia, Spain"
      }
    },
    {
      "type": "Feature",
      "geometry": {
        "type": "Point",
        "coordinates": [-58.39562,-34.58881]
      },
      "properties": {
        "name": "Buenos Aires, Argentina",
        "marker-symbol": "building"
      }
    },
    {
      "type": "Feature",
      "geometry": {
        "type": "Point",
        "coordinates": [-55.2743,-34.86819]
      },
      "properties": {
        "name": "Piriapolis, Uruguay"
      }
    },
    {
      "type": "Feature",
      "geometry": {
        "type": "Point",
        "coordinates": [-54.570644,-25.598528]
      },
      "properties": {
        "name": "Puerto Iguazu, Argentina"
      }
    },
    {
      "type": "Feature",
      "geometry": {
        "type": "Point",
        "coordinates": [112.46735,34.66579]
      },
      "properties": {
        "name": "Luoyang, China"
      }
    },
    {
      "type": "Feature",
      "geometry": {
        "type": "Point",
        "coordinates": [-60.66901,-32.95507]
      },
      "properties": {
        "name": "Rosario, Argentina"
      }
    },
    {
      "type": "Feature",
      "geometry": {
        "type": "Point",
        "coordinates": [116.99379,36.66216]
      },
      "properties": {
        "name": "Jinan, China"
      }
    },
    {
      "type": "Feature",
      "geometry": {
        "type": "Point",
        "coordinates": [-1.439755,40.409576]
      },
      "properties": {
        "name": "Albarracin, Spain"
      }
    },
    {
      "type": "Feature",
      "geometry": {
        "type": "Point",
        "coordinates": [121.48737,31.234953]
      },
      "properties": {
        "name": "Shanghai, China"
      }
    },
    {
      "type": "Feature",
      "geometry": {
        "type": "Point",
        "coordinates": [98.346466,7.918059]
      },
      "properties": {
        "name": "Phuket, Thailand"
      }
    },
    {
      "type": "Feature",
      "geometry": {
        "type": "Point",
        "coordinates": [-56.168724,-34.90726]
      },
      "properties": {
        "name": "Montevideo, Uruguay"
      }
    },
    {
      "type": "Feature",
      "geometry": {
        "type": "Point",
        "coordinates": [-59.03329,-34.10178]
      },
      "properties": {
        "name": "Zarate, Argentina"
      }
    },
    {
      "type": "Feature",
      "geometry": {
        "type": "Point",
        "coordinates": [-57.835003,-34.466022]
      },
      "properties": {
        "name": "Colonia del Sacramento, Uruguay"
      }
    },
    {
      "type": "Feature",
      "geometry": {
        "type": "Point",
        "coordinates": [-58.572475,-34.422028]
      },
      "properties": {
        "name": "Tigre, Argentina"
      }
    },
    {
      "type": "Feature",
      "geometry": {
        "type": "Point",
        "coordinates": [-56.975098,-37.243446]
      },
      "properties": {
        "name": "Valeria del Mar, Argentina"
      }
    },
    {
      "type": "Feature",
      "geometry": {
        "type": "Point",
        "coordinates": [-68.209114,-22.922005]
      },
      "properties": {
        "name": "San Pedro de Atacama, Chile"
      }
    },
    {
      "type": "Feature",
      "geometry": {
        "type": "Point",
        "coordinates": [-69.58437,-35.469105]
      },
      "properties": {
        "name": "Malargue, Argentina"
      }
    },
    {
      "type": "Feature",
      "geometry": {
        "type": "Point",
        "coordinates": [-56.97029,-37.260124]
      },
      "properties": {
        "name": "Villa Gesell, Argentina"
      }
    },
    {
      "type": "Feature",
      "geometry": {
        "type": "Point",
        "coordinates": [104.92013,11.563291]
      },
      "properties": {
        "name": "Phnom Penh, Cambodia"
      }
    },
    {
      "type": "Feature",
      "geometry": {
        "type": "Point",
        "coordinates": [-64.18995,-31.40833]
      },
      "properties": {
        "name": "Cordoba, Argentina"
      }
    },
    {
      "type": "Feature",
      "geometry": {
        "type": "Point",
        "coordinates": [114.17359,22.309187]
      },
      "properties": {
        "name": "Hong Kong, China"
      }
    },
    {
      "type": "Feature",
      "geometry": {
        "type": "Point",
        "coordinates": [100.2461,26.678831]
      },
      "properties": {
        "name": "Lijiang, China"
      }
    },
    {
      "type": "Feature",
      "geometry": {
        "type": "Point",
        "coordinates": [-54.674664,-25.504333]
      },
      "properties": {
        "name": "Ciudad Del Este, Paraguay"
      }
    },
    {
      "type": "Feature",
      "geometry": {
        "type": "Point",
        "coordinates": [-58.286964,-34.004364]
      },
      "properties": {
        "name": "Carmelo, Uruguay"
      }
    },
    {
      "type": "Feature",
      "geometry": {
        "type": "Point",
        "coordinates": [-71.071686,-39.941364]
      },
      "properties": {
        "name": "Junin de los Andes, Argentina"
      }
    },
    {
      "type": "Feature",
      "geometry": {
        "type": "Point",
        "coordinates": [104.1833,10.609783]
      },
      "properties": {
        "name": "Kampot, Cambodia"
      }
    },
    {
      "type": "Feature",
      "geometry": {
        "type": "Point",
        "coordinates": [-0.612778,38.765835]
      },
      "properties": {
        "name": "Bocairente, Spain"
      }
    },
    {
      "type": "Feature",
      "geometry": {
        "type": "Point",
        "coordinates": [104.32583,10.541484]
      },
      "properties": {
        "name": "Kep, Cambodia"
      }
    },
    {
      "type": "Feature",
      "geometry": {
        "type": "Point",
        "coordinates": [-64.486664,-31.092186]
      },
      "properties": {
        "name": "La Falda, Argentina"
      }
    },
    {
      "type": "Feature",
      "geometry": {
        "type": "Point",
        "coordinates": [-79.07091,43.101624]
      },
      "properties": {
        "name": "Niagara Falls, Ontario, Canada"
      }
    },
    {
      "type": "Feature",
      "geometry": {
        "type": "Point",
        "coordinates": [-58.735733,-38.554516]
      },
      "properties": {
        "name": "Necochea, Argentina"
      }
    },
    {
      "type": "Feature",
      "geometry": {
        "type": "Point",
        "coordinates": [-58.908173,-34.457253]
      },
      "properties": {
        "name": "Pilar, Argentina"
      }
    },
    {
      "type": "Feature",
      "geometry": {
        "type": "Point",
        "coordinates": [-57.842274,-38.26923]
      },
      "properties": {
        "name": "Miramar, Argentina"
      }
    },
    {
      "type": "Feature",
      "geometry": {
        "type": "Point",
        "coordinates": [-56.722412,-36.377068]
      },
      "properties": {
        "name": "San Clemente del Tuyu, Argentina"
      }
    },
    {
      "type": "Feature",
      "geometry": {
        "type": "Point",
        "coordinates": [0.125567,38.696236]
      },
      "properties": {
        "name": "Moraira, Spain"
      }
    },
    {
      "type": "Feature",
      "geometry": {
        "type": "Point",
        "coordinates": [-56.858707,-37.11177]
      },
      "properties": {
        "name": "Pinamar, Argentina"
      }
    },
    {
      "type": "Feature",
      "geometry": {
        "type": "Point",
        "coordinates": [-56.68345,-36.69719]
      },
      "properties": {
        "name": "San Bernardo, Argentina"
      }
    },
    {
      "type": "Feature",
      "geometry": {
        "type": "Point",
        "coordinates": [98.76531,7.740675]
      },
      "properties": {
        "name": "Ko Phi Phi Don, Thailand"
      }
    },
    {
      "type": "Feature",
      "geometry": {
        "type": "Point",
        "coordinates": [-71.5155,-41.966637]
      },
      "properties": {
        "name": "El Bolson, Argentina"
      }
    },
    {
      "type": "Feature",
      "geometry": {
        "type": "Point",
        "coordinates": [-1.105238,40.34083]
      },
      "properties": {
        "name": "Teruel, Spain"
      }
    },
    {
      "type": "Feature",
      "geometry": {
        "type": "Point",
        "coordinates": [101.69717,3.156802]
      },
      "properties": {
        "name": "Kuala Lumpur, Malaysia"
      }
    },
    {
      "type": "Feature",
      "geometry": {
        "type": "Point",
        "coordinates": [-58.52066,-34.47839]
      },
      "properties": {
        "name": "San Isidro, Argentina"
      }
    },
    {
      "type": "Feature",
      "geometry": {
        "type": "Point",
        "coordinates": [-71.55738,-33.02315]
      },
      "properties": {
        "name": "Vina del Mar, Chile"
      }
    },
    {
      "type": "Feature",
      "geometry": {
        "type": "Point",
        "coordinates": [-77.6809,43.16486]
      },
      "properties": {
        "name": "Rochester, NY, USA"
      }
    },
    {
      "type": "Feature",
      "geometry": {
        "type": "Point",
        "coordinates": [113.55499,22.163845]
      },
      "properties": {
        "name": "Macau, China"
      }
    },
    {
      "type": "Feature",
      "geometry": {
        "type": "Point",
        "coordinates": [-5.004349,34.026806]
      },
      "properties": {
        "name": "Fes, Morocco"
      }
    },
    {
      "type": "Feature",
      "geometry": {
        "type": "Point",
        "coordinates": [-3.605812,37.176136]
      },
      "properties": {
        "name": "Granada, Spain"
      }
    },
    {
      "type": "Feature",
      "geometry": {
        "type": "Point",
        "coordinates": [21.00948,52.23537]
      },
      "properties": {
        "name": "Warsaw, Poland"
      }
    },
    {
      "type": "Feature",
      "geometry": {
        "type": "Point",
        "coordinates": [-5.990674,37.383396]
      },
      "properties": {
        "name": "Seville, Spain"
      }
    },
    {
      "type": "Feature",
      "geometry": {
        "type": "Point",
        "coordinates": [-59.136253,-37.31446]
      },
      "properties": {
        "name": "Tandil, Argentina"
      }
    },
    {
      "type": "Feature",
      "geometry": {
        "type": "Point",
        "coordinates": [-61.797966,-38.134678]
      },
      "properties": {
        "name": "Sierra De la Ventana, Argentina"
      }
    },
    {
      "type": "Feature",
      "geometry": {
        "type": "Point",
        "coordinates": [-66.33715,-33.300873]
      },
      "properties": {
        "name": "San Luis, Argentina"
      }
    },
    {
      "type": "Feature",
      "geometry": {
        "type": "Point",
        "coordinates": [-65.04822,-42.775402]
      },
      "properties": {
        "name": "Puerto Madryn, Argentina"
      }
    },
    {
      "type": "Feature",
      "geometry": {
        "type": "Point",
        "coordinates": [-68.5261,-31.5342]
      },
      "properties": {
        "name": "San Juan, Argentina"
      }
    },
    {
      "type": "Feature",
      "geometry": {
        "type": "Point",
        "coordinates": [-64.26727,-42.583424]
      },
      "properties": {
        "name": "Puerto Piramides, Argentina"
      }
    },
    {
      "type": "Feature",
      "geometry": {
        "type": "Point",
        "coordinates": [-57.5,-37.83333]
      },
      "properties": {
        "name": "Santa Clara del Mar, Argentina"
      }
    },
    {
      "type": "Feature",
      "geometry": {
        "type": "Point",
        "coordinates": [-65.2918,-43.23565]
      },
      "properties": {
        "name": "Trelew, Argentina"
      }
    },
    {
      "type": "Feature",
      "geometry": {
        "type": "Point",
        "coordinates": [-65.03344,-32.348534]
      },
      "properties": {
        "name": "Merlo, Argentina"
      }
    },
    {
      "type": "Feature",
      "geometry": {
        "type": "Point",
        "coordinates": [-72.51582,-13.162849]
      },
      "properties": {
        "name": "Aguas Calientes, Peru"
      }
    },
    {
      "type": "Feature",
      "geometry": {
        "type": "Point",
        "coordinates": [108.93585,34.25381]
      },
      "properties": {
        "name": "Xi'an, China"
      }
    },
    {
      "type": "Feature",
      "geometry": {
        "type": "Point",
        "coordinates": [113.24516,23.109507]
      },
      "properties": {
        "name": "Guangzhou, China"
      }
    },
    {
      "type": "Feature",
      "geometry": {
        "type": "Point",
        "coordinates": [-62.19646,-38.153996]
      },
      "properties": {
        "name": "Villa Ventana, Argentina"
      }
    },
    {
      "type": "Feature",
      "geometry": {
        "type": "Point",
        "coordinates": [-4.422782,36.718468]
      },
      "properties": {
        "name": "Malaga, Spain"
      }
    },
    {
      "type": "Feature",
      "geometry": {
        "type": "Point",
        "coordinates": [-81.38888,28.532557]
      },
      "properties": {
        "name": "Orlando, FL, USA"
      }
    },
    {
      "type": "Feature",
      "geometry": {
        "type": "Point",
        "coordinates": [-57.02247,-37.327644]
      },
      "properties": {
        "name": "Mar de las Pampas, Argentina"
      }
    },
    {
      "type": "Feature",
      "geometry": {
        "type": "Point",
        "coordinates": [-0.512085,38.330406]
      },
      "properties": {
        "name": "Cocentaina, Spain"
      }
    },
    {
      "type": "Feature",
      "geometry": {
        "type": "Point",
        "coordinates": [-6.295243,36.530533]
      },
      "properties": {
        "name": "Cadiz, Spain"
      }
    },
    {
      "type": "Feature",
      "geometry": {
        "type": "Point",
        "coordinates": [-4.779073,37.88069]
      },
      "properties": {
        "name": "Cordoba, Spain"
      }
    },
    {
      "type": "Feature",
      "geometry": {
        "type": "Point",
        "coordinates": [-43.946056,-19.923758]
      },
      "properties": {
        "name": "Belo Horizonte, Brazil"
      }
    },
    {
      "type": "Feature",
      "geometry": {
        "type": "Point",
        "coordinates": [3.551015,43.3338]
      },
      "properties": {
        "name": "Sete, France"
      }
    },
    {
      "type": "Feature",
      "geometry": {
        "type": "Point",
        "coordinates": [-0.484558,38.344032]
      },
      "properties": {
        "name": "Alicante, Spain"
      }
    },
    {
      "type": "Feature",
      "geometry": {
        "type": "Point",
        "coordinates": [-68.05878,-38.95264]
      },
      "properties": {
        "name": "Neuquen, Argentina"
      }
    },
    {
      "type": "Feature",
      "geometry": {
        "type": "Point",
        "coordinates": [-64.56507,-31.977182]
      },
      "properties": {
        "name": "Villa General Belgrano, Argentina"
      }
    },
    {
      "type": "Feature",
      "geometry": {
        "type": "Point",
        "coordinates": [-70.14561,-20.217712]
      },
      "properties": {
        "name": "Iquique, Chile"
      }
    },
    {
      "type": "Feature",
      "geometry": {
        "type": "Point",
        "coordinates": [-71.3516,-40.155983]
      },
      "properties": {
        "name": "San Martin de los Andes, Argentina"
      }
    },
    {
      "type": "Feature",
      "geometry": {
        "type": "Point",
        "coordinates": [-71.64525,-40.762123]
      },
      "properties": {
        "name": "Villa La Angostura, Argentina"
      }
    },
    {
      "type": "Feature",
      "geometry": {
        "type": "Point",
        "coordinates": [-64.499275,-31.420782]
      },
      "properties": {
        "name": "Villa Carlos Paz, Argentina"
      }
    },
    {
      "type": "Feature",
      "geometry": {
        "type": "Point",
        "coordinates": [-62.99478,-40.80639]
      },
      "properties": {
        "name": "Viedma, Argentina"
      }
    },
    {
      "type": "Feature",
      "geometry": {
        "type": "Point",
        "coordinates": [-64.99237,-40.749336]
      },
      "properties": {
        "name": "Las Grutas, Argentina"
      }
    },
    {
      "type": "Feature",
      "geometry": {
        "type": "Point",
        "coordinates": [-71.29987,-41.13738]
      },
      "properties": {
        "name": "San Carlos de Bariloche, Argentina"
      }
    },
    {
      "type": "Feature",
      "geometry": {
        "type": "Point",
        "coordinates": [-2.463083,36.84186]
      },
      "properties": {
        "name": "Almeria, Spain"
      }
    },
    {
      "type": "Feature",
      "geometry": {
        "type": "Point",
        "coordinates": [-72.92716,41.3044]
      },
      "properties": {
        "name": "New Haven, CT, USA"
      }
    },
    {
      "type": "Feature",
      "geometry": {
        "type": "Point",
        "coordinates": [-60.92844,-34.51459]
      },
      "properties": {
        "name": "Junin, Argentina"
      }
    },
    {
      "type": "Feature",
      "geometry": {
        "type": "Point",
        "coordinates": [-69.35269,-32.601425]
      },
      "properties": {
        "name": "Uspallata, Argentina"
      }
    },
    {
      "type": "Feature",
      "geometry": {
        "type": "Point",
        "coordinates": [-68.32793,-34.611652]
      },
      "properties": {
        "name": "San Rafael, Argentina"
      }
    },
    {
      "type": "Feature",
      "geometry": {
        "type": "Point",
        "coordinates": [-68.82872,-32.87494]
      },
      "properties": {
        "name": "Mendoza, Argentina"
      }
    },
    {
      "type": "Feature",
      "geometry": {
        "type": "Point",
        "coordinates": [-0.5121,38.38269]
      },
      "properties": {
        "name": "Sant Vicent del Raspeig, Spain"
      }
    },
    {
      "type": "Feature",
      "geometry": {
        "type": "Point",
        "coordinates": [-71.96856,-13.521886]
      },
      "properties": {
        "name": "Cusco, Peru"
      }
    },
    {
      "type": "Feature",
      "geometry": {
        "type": "Point",
        "coordinates": [-74.00584,40.713238]
      },
      "properties": {
        "name": "New York City, NY, USA"
      }
    },
    {
      "type": "Feature",
      "geometry": {
        "type": "Point",
        "coordinates": [-0.044843,38.632034]
      },
      "properties": {
        "name": "Altea la Vella, Spain"
      }
    },
    {
      "type": "Feature",
      "geometry": {
        "type": "Point",
        "coordinates": [116.39452,39.909336]
      },
      "properties": {
        "name": "Beijing, China"
      }
    },
    {
      "type": "Feature",
      "geometry": {
        "type": "Point",
        "coordinates": [103.86083,13.363545]
      },
      "properties": {
        "name": "Siem Reap, Cambodia"
      }
    },
    {
      "type": "Feature",
      "geometry": {
        "type": "Point",
        "coordinates": [8.645418,50.161385]
      },
      "properties": {
        "name": "Frankfurt, Germany"
      }
    },
    {
      "type": "Feature",
      "geometry": {
        "type": "Point",
        "coordinates": [-71.063611, 42.358056]
      },
      "properties": {
        "name": "Boston, MA, USA"
      }
    },
    {
      "type": "Feature",
      "geometry": {
        "type": "Point",
        "coordinates": [-72.079167, 42.108333]
      },
      "properties": {
        "name": "Sturbridge, MA, USA"
      }
    },
    {
      "type": "Feature",
      "geometry": {
        "type": "Point",
        "coordinates": [-77.016389, 38.904722]
      },
      "properties": {
        "name": "Washington, DC, USA"
      }
    },
    {
      "type": "Feature",
      "geometry": {
        "type": "Point",
        "coordinates": [120.383333, 36.066667]
      },
      "properties": {
        "name": "Qingdao, China"
      }
    },
    {
      "type": "Feature",
      "geometry": {
        "type": "Point",
        "coordinates": [-99.133333, 19.433333]
      },
      "properties": {
        "name": "Distrito Federal, México"
      }
    },
    {
      "type": "Feature",
      "geometry": {
        "type": "Point",
        "coordinates": [-117.1625, 32.715]
      },
      "properties": {
        "name": "San Diego, CA, USA"
      }
    },
    {
      "type": "Feature",
      "geometry": {
        "type": "Point",
        "coordinates": [-86.8475, 21.160556]
      },
      "properties": {
        "name": "Cancún, México"
      }
    },
    {
      "type": "Feature",
      "geometry": {
        "type": "Point",
        "coordinates": [-87.428889, 20.214722]
      },
      "properties": {
        "name": "Tulum, México"
      }
    },
    {
      "type": "Feature",
      "geometry": {
        "type": "Point",
        "coordinates": [-87.08, 20.63]
      },
      "properties": {
        "name": "Playa del Carmen, México"
      }
    },
    {
      "type": "Feature",
      "geometry": {
        "type": "Point",
        "coordinates": [-88.201667, 20.689444]
      },
      "properties": {
        "name": "Valladolid, México"
      }
    },
    {
      "type": "Feature",
      "geometry": {
        "type": "Point",
        "coordinates": [-86.733333, 21.233333]
      },
      "properties": {
        "name": "Isla Mujeres, México"
      }
    },
    {
      "type": "Feature",
      "geometry": {
        "type": "Point",
        "coordinates": [-84.171389, 33.805278]
      },
      "properties": {
        "name": "Stone Mountain, GA, USA"
      }
    },
    {
      "type": "Feature",
      "geometry": {
        "type": "Point",
        "coordinates": [-149.4525, 61.581667]
      },
      "properties": {
        "name": "Wasilia, AK, USA"
      }
    },
    {
      "type": "Feature",
      "geometry": {
        "type": "Point",
        "coordinates": [-149.9, 61.216667]
      },
      "properties": {
        "name": "Anchorage, AK, USA"
      }
    },
    {
      "type": "Feature",
      "geometry": {
        "type": "Point",
        "coordinates": [-148.677778, 60.774167]
      },
      "properties": {
        "name": "Whittier, AK, USA"
      }
    },
    {
      "type": "Feature",
      "geometry": {
        "type": "Point",
        "coordinates": [-121.018611, 39.261389]
      },
      "properties": {
        "name": "Nevada City, CA, USA"
      }
    },
    {
      "type": "Feature",
      "geometry": {
        "type": "Point",
        "coordinates": [-121.468889, 38.555556]
      },
      "properties": {
        "name": "Sacramento, CA, USA"
      }
    },
    {
      "type": "Feature",
      "geometry": {
        "type": "Point",
        "coordinates": [-119.821944, 39.527222]
      },
      "properties": {
        "name": "Reno, NV, USA"
      }
    },
    {
      "type": "Feature",
      "geometry": {
        "type": "Point",
        "coordinates": [-119.976944, 38.94]
      },
      "properties": {
        "name": "South Lake Tahoe, CA, USA"
      }
    },
    {
      "type": "Feature",
      "geometry": {
        "type": "Point",
        "coordinates": [-119.753889, 39.160833]
      },
      "properties": {
        "name": "Carson City, NV, USA"
      }
    },
    {
      "type": "Feature",
      "geometry": {
        "type": "Point",
        "coordinates": [-122.456667, 37.873611]
      },
      "properties": {
        "name": "Tiburon, CA, USA"
      }
    },
    {
      "type": "Feature",
      "geometry": {
        "type": "Point",
        "coordinates": [-79.4, 43.7]
      },
      "properties": {
        "name": "Toronto, Canada"
      }
    },
    {
      "type": "Feature",
      "geometry": {
        "type": "Point",
        "coordinates": [-1.893611, 52.483056]
      },
      "properties": {
        "name": "Birmingham, England"
      }
    },
    {
      "type": "Feature",
      "geometry": {
        "type": "Point",
        "coordinates": [-0.1275, 51.507222]
      },
      "properties": {
        "name": "London, England"
      }
    },
    {
      "type": "Feature",
      "geometry": {
        "type": "Point",
        "coordinates": [-22.946, 16.756]
      },
      "properties": {
        "name": "Espargos, Cabo Verde"
      }
    },
    {
      "type": "Feature",
      "geometry": {
        "type": "Point",
        "coordinates": [-22.904, 16.599]
      },
      "properties": {
        "name": "Santa Maria, Cabo Verde"
      }
    },
    {
      "type": "Feature",
      "geometry": {
        "type": "Point",
        "coordinates": [-22.895, 16.763]
      },
      "properties": {
        "name": "Pedra de Lume, Cabo Verde"
      }
    },
    {
      "type": "Feature",
      "geometry": {
        "type": "Point",
        "coordinates": [-24.357, 16.566]
      },
      "properties": {
        "name": "Tarrafal de São Nicolau, Cabo Verde"
      }
    },
    {
      "type": "Feature",
      "geometry": {
        "type": "Point",
        "coordinates": [-24.299, 16.615]
      },
      "properties": {
        "name": "Ribeira Brava, Cabo Verde"
      }
    },
    {
      "type": "Feature",
      "geometry": {
        "type": "Point",
        "coordinates": [-122.333056, 47.609722]
      },
      "properties": {
        "name": "Seattle, WA, USA"
      }
    },
    {
      "type": "Feature",
      "geometry": {
        "type": "Point",
        "coordinates": [-122.681944, 45.52]
      },
      "properties": {
        "name": "Portland, OR, USA"
      }
    },
    {
      "type": "Feature",
      "geometry": {
        "type": "Point",
        "coordinates": [-120.139722, 34.593889]
      },
      "properties": {
        "name": "Solvang, CA, USA"
      }
    },
    {
      "type": "Feature",
      "geometry": {
        "type": "Point",
        "coordinates": [-121.189722, 35.643889]
      },
      "properties": {
        "name": "San Simeon, CA, USA"
      }
    },
    {
      "type": "Feature",
      "geometry": {
        "type": "Point",
        "coordinates": [-119.966389, 37.485]
      },
      "properties": {
        "name": "Mariposa, CA, USA"
      }
    },
    {
      "type": "Feature",
      "geometry": {
        "type": "Point",
        "coordinates": [-122.362222, 38.403056]
      },
      "properties": {
        "name": "Yountville, CA, USA"
      }
    },
    {
      "type": "Feature",
      "geometry": {
        "type": "Point",
        "coordinates": [-122.866389, 38.6175]
      },
      "properties": {
        "name": "Healdsburg, CA, USA"
      }
    },
    {
      "type": "Feature",
      "geometry": {
        "type": "Point",
        "coordinates": [-156.376389, 20.910556]
      },
      "properties": {
        "name": "Pāʻia, HI, USA"
      }
    },
    {
      "type": "Feature",
      "geometry": {
        "type": "Point",
        "coordinates": [-155.994167, 20.77]
      },
      "properties": {
        "name": "Hāna, HI, USA"
      }
    },
    {
      "type": "Feature",
      "geometry": {
        "type": "Point",
        "coordinates": [-156.674722, 20.886111]
      },
      "properties": {
        "name": "Lahaina, HI, USA"
      }
    },
    {
      "type": "Feature",
      "geometry": {
        "type": "Point",
        "coordinates": [-156.457222, 20.759167]
      },
      "properties": {
        "name": "Kīhei, HI, USA"
      }
    },
    {
      "type": "Feature",
      "geometry": {
        "type": "Point",
        "coordinates": [-156.4675, 20.881667]
      },
      "properties": {
        "name": "Kahului, HI, USA"
      }
    },
    {
      "type": "Feature",
      "geometry": {
        "type": "Point",
        "coordinates": [-156.253333, 20.709722]
      },
      "properties": {
        "name": "Haleakalā, HI, USA"
      }
    },
    {
      "type": "Feature",
      "geometry": {
        "type": "Point",
        "coordinates": [-156.439167, 20.69]
      },
      "properties": {
        "name": "Wailea, HI, USA"
      }
    },
    {
      "type": "Feature",
      "geometry": {
        "type": "Point",
        "coordinates": [-155.994167, 19.65]
      },
      "properties": {
        "name": "Kailua, HI, USA"
      }
    },
    {
      "type": "Feature",
      "geometry": {
        "type": "Point",
        "coordinates": [-155.085833, 19.705556]
      },
      "properties": {
        "name": "Hilo, HI, USA"
      }
    },
    {
      "type": "Feature",
      "geometry": {
        "type": "Point",
        "coordinates": [-155.2, 19.383333]
      },
      "properties": {
        "name": "Hawaiʻi Volcanoes National Park, HI, USA"
      }
    },
    {
      "type": "Feature",
      "geometry": {
        "type": "Point",
        "coordinates": [-112.066667, 33.45]
      },
      "properties": {
        "name": "Phoenix, AZ, USA"
      }
    },
    {
      "type": "Feature",
      "geometry": {
        "type": "Point",
        "coordinates": [-111.761111, 34.869722]
      },
      "properties": {
        "name": "Sedona, AZ, USA"
      }
    },
    {
      "type": "Feature",
      "geometry": {
        "type": "Point",
        "coordinates": [-97.743056, 30.267222]
      },
      "properties": {
        "name": "Austin, TX, USA"
      }
    },
    {
      "type": "Feature",
      "geometry": {
        "type": "Point",
        "coordinates": [-104.990278, 39.739167]
      },
      "properties": {
        "name": "Denver, CO, USA",
        "marker-symbol": "building"
      }
    },
    {
      "type": "Feature",
      "geometry": {
        "type": "Point",
        "coordinates": [-104.8125, 39.710833]
      },
      "properties": {
        "name": "Aurora, CO, USA",
        "marker-symbol": "building",
        "marker-color": "#008000"
      }
    },
    {
      "type": "Feature",
      "geometry": {
        "type": "Point",
        "coordinates": [-105.270556, 40.015]
      },
      "properties": {
        "name": "Boulder, CO, USA"
      }
    },
    {
      "type": "Feature",
      "geometry": {
        "type": "Point",
        "coordinates": [-104.825278, 38.833889]
      },
      "properties": {
        "name": "Colorado Springs, CO, USA"
      }
    },
    {
      "type": "Feature",
      "geometry": {
        "type": "Point",
        "coordinates": [-108.488687, 37.183784]
      },
      "properties": {
        "name": "Mesa Verde National Park, CO, USA"
      }
    },
    {
      "type": "Feature",
      "geometry": {
        "type": "Point",
        "coordinates": [-105.51212, 37.73287]
      },
      "properties": {
        "name": "Great Sand Dunes National Park, CO, USA"
      }
    },
    {
      "type": "Feature",
      "geometry": {
        "type": "Point",
        "coordinates": [-107.816389, 37.939167]
      },
      "properties": {
        "name": "Telluride, CO, USA"
      }
    },
    {
      "type": "Feature",
      "geometry": {
        "type": "Point",
        "coordinates": [-107.672222, 38.023333]
      },
      "properties": {
        "name": "Ouray, CO, USA"
      }
    },
    {
      "type": "Feature",
      "geometry": {
        "type": "Point",
        "coordinates": [-107.214475, 39.394616]
      },
      "properties": {
        "name": "Carbondale, CO, USA"
      }
    },
    {
      "type": "Feature",
      "geometry": {
        "type": "Point",
        "coordinates": [-106.375, 39.641667]
      },
      "properties": {
        "name": "Vail, CO, USA"
      }
    },
    {
      "type": "Feature",
      "geometry": {
        "type": "Point",
        "coordinates": [-106.043292, 39.499619]
      },
      "properties": {
        "name": "Breckenridge, CO, USA"
      }
    },
    {
      "type": "Feature",
      "geometry": {
        "type": "Point",
        "coordinates": [-105.695833, 39.7125]
      },
      "properties": {
        "name": "Georgetown, CO, USA"
      }
    },
    {
      "type": "Feature",
      "geometry": {
        "type": "Point",
        "coordinates": [-105.682813, 39.75971]
      },
      "properties": {
        "name": "Empire, CO, USA"
      }
    },
    {
      "type": "Feature",
      "geometry": {
        "type": "Point",
        "coordinates": [-105.525514, 40.377117]
      },
      "properties": {
        "name": "Estes Park, CO, USA"
      }
    },
    {
      "type": "Feature",
      "geometry": {
        "type": "Point",
        "coordinates": [-79.368056, 38.995833]
      },
      "properties": {
        "name": "Dolly Sods Wilderness, WV, USA"
      }
    },
    {
      "type": "Feature",
      "geometry": {
        "type": "Point",
        "coordinates": [-79.366111, 38.834722]
      },
      "properties": {
        "name": "Seneca Rocks, WV, USA"
      }
    },
    {
      "type": "Feature",
      "geometry": {
        "type": "Point",
        "coordinates": [-105.875314, 37.475041]
      },
      "properties": {
        "name": "Alamosa, CO, USA"
      }
    },
    {
      "type": "Feature",
      "geometry": {
        "type": "Point",
        "coordinates": [-106.324167, 35.875556]
      },
      "properties": {
        "name": "Los Alamos, NM, USA"
      }
    },
    {
      "type": "Feature",
      "geometry": {
        "type": "Point",
        "coordinates": [-106.61, 35.110833]
      },
      "properties": {
        "name": "Albuquerque, NM, USA"
      }
    },
    {
      "type": "Feature",
      "geometry": {
        "type": "Point",
        "coordinates": [-106.171944, 32.779167]
      },
      "properties": {
        "name": "White Sands National Park, NM, USA"
      }
    },
    {
      "type": "Feature",
      "geometry": {
        "type": "Point",
        "coordinates": [-105.964444, 35.667222]
      },
      "properties": {
        "name": "Santa Fe, NM, USA"
      }
    },
    {
      "type": "Feature",
      "geometry": {
        "type": "Point",
        "coordinates": [-105.435278, 35.327222]
      },
      "properties": {
        "name": "Pueblo, NM, USA"
      }
    },
    {
      "type": "Feature",
      "geometry": {
        "type": "Point",
        "coordinates": [-95.383056, 29.762778]
      },
      "properties": {
        "name": "Houston, TX, USA"
      }
    },
    {
      "type": "Feature",
      "geometry": {
        "type": "Point",
        "coordinates": [-105.593611, 41.311111]
      },
      "properties": {
        "name": "Laramie, WY, USA"
      }
    },
    {
      "type": "Feature",
      "geometry": {
        "type": "Point",
        "coordinates": [-87.627778, 41.881944]
      },
      "properties": {
        "name": "Chicago, IL, USA"
      }
    },
    {
      "type": "Feature",
      "geometry": {
        "type": "Point",
        "coordinates": [-104.039722, 41.916944]
      },
      "properties": {
        "name": "Lyman, NE, USA"
      }
    },
    {
      "type": "Feature",
      "geometry": {
        "type": "Point",
        "coordinates": [-103.228, 44.076]
      },
      "properties": {
        "name": "Rapid City, SD, USA"
      }
    },
    {
      "type": "Feature",
      "geometry": {
        "type": "Point",
        "coordinates": [-103.5975, 43.768333]
      },
      "properties": {
        "name": "Custer, SD, USA"
      }
    },
    {
      "type": "Feature",
      "geometry": {
        "type": "Point",
        "coordinates": [-102.5, 43.75]
      },
      "properties": {
        "name": "Badlands National Park, SD, USA"
      }
    },
    {
      "type": "Feature",
      "geometry": {
        "type": "Point",
        "coordinates": [-103.47865, 43.55635]
      },
      "properties": {
        "name": "Wind Cave National Park, SD, USA",
        "marker-symbol": "park"
      }
    },
    {
      "type": "Feature",
      "geometry": {
        "type": "Point",
        "coordinates": [-103.474167, 43.431667]
      },
      "properties": {
        "name": "Hot Springs, SD, USA"
      }
    },
    {
      "type": "Feature",
      "geometry": {
        "type": "Point",
        "coordinates": [-0.197778, 38.676944]
      },
      "properties": {
        "name": "Guadalest, Spain"
      }
    },
    {
      "type": "Feature",
      "geometry": {
        "type": "Point",
        "coordinates": [-0.232778, 38.505278]
      },
      "properties": {
        "name": "La Vila Joiosa, Spain"
      }
    },
    {
      "type": "Feature",
      "geometry": {
        "type": "Point",
        "coordinates": [-0.311389, 38.587222]
      },
      "properties": {
        "name": "Relleu, Spain"
      }
    },
    {
      "type": "Feature",
      "geometry": {
        "type": "Point",
        "coordinates": [-113.584167, 37.104167]
      },
      "properties": {
        "name": "St. George, UT, USA"
      }
    },
    {
      "type": "Feature",
      "geometry": {
        "type": "Point",
        "coordinates": [-113, 37.3]
      },
      "properties": {
        "name": "Zion National Park, UT, USA"
      }
    },
    {
      "type": "Feature",
      "geometry": {
        "type": "Point",
        "coordinates": [-111.683333, 37.4]
      },
      "properties": {
        "name": "Grand Staircase–Escalante National Monument, UT, USA"
      }
    },
    {
      "type": "Feature",
      "geometry": {
        "type": "Point",
        "coordinates": [-111.166667, 38.2]
      },
      "properties": {
        "name": "Capitol Reef National Park, UT, USA"
      }
    },
    {
      "type": "Feature",
      "geometry": {
        "type": "Point",
        "coordinates": [-109.549722, 38.5725]
      },
      "properties": {
        "name": "Moab, UT, USA"
      }
    },
    {
      "type": "Feature",
      "geometry": {
        "type": "Point",
        "coordinates": [-109.549722, 38.5725]
      },
      "properties": {
        "name": "Moab, UT, USA"
      }
    },
    {
      "type": "Feature",
      "geometry": {
        "type": "Point",
        "coordinates": [-109.54, 38.728056]
      },
      "properties": {
        "name": "Arches National Park, UT, USA"
      }
    },
    {
      "type": "Feature",
      "geometry": {
        "type": "Point",
        "coordinates": [-109.75966, 38.16691]
      },
      "properties": {
        "name": "Canyonlands National Park, UT, USA"
      }
    },
    {
      "type": "Feature",
      "geometry": {
        "type": "Point",
        "coordinates": [-107.324722, 39.550556]
      },
      "properties": {
        "name": "Glenwood Springs, CO, USA"
      }
    },
    {
      "type": "Feature",
      "geometry": {
        "type": "Point",
        "coordinates": [4.893611, 52.372778]
      },
      "properties": {
        "name": "Amsterdam, Netherlands"
      }
    },
    {
      "type": "Feature",
      "geometry": {
        "type": "Point",
        "coordinates": [4.3525, 50.846667]
      },
      "properties": {
        "name": "Brussels, Belgium"
      }
    },
    {
      "type": "Feature",
      "geometry": {
        "type": "Point",
        "coordinates": [18.423889, -33.925278]
      },
      "properties": {
        "name": "Cape Town, South Africa",
        "date": "2023-09"
      }
    },
    {
      "type": "Feature",
      "geometry": {
        "type": "Point",
        "coordinates": [18.433333, -34.193333]
      },
      "properties": {
        "name": "Simon's Town, South Africa",
        "date": "2023-09"
      }
    },
    {
      "type": "Feature",
      "geometry": {
        "type": "Point",
        "coordinates": [18.475556, -34.358056]
      },
      "properties": {
        "name": "Cape of Good Hope, South Africa",
        "date": "2023-09"
      }
    },
    {
      "type": "Feature",
      "geometry": {
        "type": "Point",
        "coordinates": [19.9354327, -33.351624]
      },
      "properties": {
        "name": "Aquila Private Game Reserve, South Africa",
        "date": "2023-09"
      }
    },
    {
      "type": "Feature",
      "geometry": {
        "type": "Point",
        "coordinates": [-75.695, 38.209722]
      },
      "properties": {
        "name": "Princess Anne, MD, USA"
      }
    },
    {
      "type": "Feature",
      "geometry": {
        "type": "Point",
        "coordinates": [11.575, 48.1375]
      },
      "properties": {
        "name": "Munich, Germany",
        "date": "2024-07"
      }
    },
    {
      "type": "Feature",
      "geometry": {
        "type": "Point",
        "coordinates": [11.0775, 49.453889]
      },
      "properties": {
        "name": "Nuremberg, Germany",
        "date": "2024-07"
      }
    },
    {
      "type": "Feature",
      "geometry": {
        "type": "Point",
        "coordinates": [14.421389, 50.0875]
      },
      "properties": {
        "name": "Prague, Czech Republic",
        "date": "2024-07"
      }
    },
    {
      "type": "Feature",
      "geometry": {
        "type": "Point",
        "coordinates": [16.3725, 48.208333]
      },
      "properties": {
        "name": "Vienna, Austria",
        "date": "2024-07"
      }
    },
    {
      "type": "Feature",
      "geometry": {
        "type": "Point",
        "coordinates": [-111.105833, 44.6625]
      },
      "properties": {
        "name": "West Yellowstone, MT, USA",
        "date": "2024-08"
      }
    },
    {
      "type": "Feature",
      "geometry": {
        "type": "Point",
        "coordinates": [-110.833333, 43.516667]
      },
      "properties": {
        "name": "Jackson Hole, WY, USA",
        "date": "2024-08"
      }
    },
    {
      "type": "Feature",
      "geometry": {
        "type": "Point",
        "coordinates": [-110.547222, 44.596389]
      },
      "properties": {
        "name": "Yellowstone National Park, MT/WY/ID, USA",
        "date": "2024-08",
        "marker-symbol": "park"
      }
    },
    {
      "type": "Feature",
      "geometry": {
        "type": "Point",
        "coordinates": [-110.700833, 43.833333]
      },
      "properties": {
        "name": "Grand Teton National Park, WY, USA",
        "date": "2024-08",
        "marker-symbol": "park"
      }
    },
    {
      "type": "Feature",
      "geometry": {
        "type": "Point",
        "coordinates": [139.692222, 35.689722]
      },
      "properties": {
        "name": "Tokyo, Japan",
        "date": "2024-09"
      }
    },
    {
      "type": "Feature",
      "geometry": {
        "type": "Point",
        "coordinates": [135.768333, 35.011667]
      },
      "properties": {
        "name": "Kyoto, Japan",
        "date": "2024-09"
      }
    },
    {
      "type": "Feature",
      "geometry": {
        "type": "Point",
        "coordinates": [135.502222, 34.693889]
      },
      "properties": {
        "name": "Osaka, Japan",
        "date": "2024-09"
      }
    },
    {
      "type": "Feature",
      "geometry": {
        "type": "Point",
        "coordinates": [135.805, 34.684444]
      },
      "properties": {
        "name": "Nara, Japan",
        "date": "2024-09"
      }
    },
    {
      "type": "Feature",
      "geometry": {
        "type": "Point",
        "coordinates": [137.0898, 35.1725]
      },
      "properties": {
        "name": "Ghibli Park, Japan",
        "date": "2024-09"
      }
    },
    {
      "type": "Feature",
      "geometry": {
        "type": "Point",
        "coordinates": [-90.078333, 29.976111]
      },
      "properties": {
        "name": "New Orleans, LA, USA",
        "date": "2024-11"
      }
    }
  ]
}
